[
    {
        "model": "master.state",
        "pk": 3901,
        "fields": {
            "name": "Badakhshan",
            "country_id": 1,
            "country_code": "AF",
            "country_name": "Afghanistan",
            "state_code": "BDS",
            "type": "province",
            "latitude": "36.73477250",
            "longitude": "70.81199530"
        }
    },
    {
        "model": "master.state",
        "pk": 3871,
        "fields": {
            "name": "Badghis",
            "country_id": 1,
            "country_code": "AF",
            "country_name": "Afghanistan",
            "state_code": "BDG",
            "type": "province",
            "latitude": "35.16713390",
            "longitude": "63.76953840"
        }
    },
    {
        "model": "master.state",
        "pk": 3875,
        "fields": {
            "name": "Baghlan",
            "country_id": 1,
            "country_code": "AF",
            "country_name": "Afghanistan",
            "state_code": "BGL",
            "type": "province",
            "latitude": "36.17890260",
            "longitude": "68.74530640"
        }
    },
    {
        "model": "master.state",
        "pk": 3884,
        "fields": {
            "name": "Balkh",
            "country_id": 1,
            "country_code": "AF",
            "country_name": "Afghanistan",
            "state_code": "BAL",
            "type": "province",
            "latitude": "36.75506030",
            "longitude": "66.89753720"
        }
    },
    {
        "model": "master.state",
        "pk": 3872,
        "fields": {
            "name": "Bamyan",
            "country_id": 1,
            "country_code": "AF",
            "country_name": "Afghanistan",
            "state_code": "BAM",
            "type": "province",
            "latitude": "34.81000670",
            "longitude": "67.82121040"
        }
    },
    {
        "model": "master.state",
        "pk": 3892,
        "fields": {
            "name": "Daykundi",
            "country_id": 1,
            "country_code": "AF",
            "country_name": "Afghanistan",
            "state_code": "DAY",
            "type": "province",
            "latitude": "33.66949500",
            "longitude": "66.04635340"
        }
    },
    {
        "model": "master.state",
        "pk": 3899,
        "fields": {
            "name": "Farah",
            "country_id": 1,
            "country_code": "AF",
            "country_name": "Afghanistan",
            "state_code": "FRA",
            "type": "province",
            "latitude": "32.49532800",
            "longitude": "62.26266270"
        }
    },
    {
        "model": "master.state",
        "pk": 3889,
        "fields": {
            "name": "Faryab",
            "country_id": 1,
            "country_code": "AF",
            "country_name": "Afghanistan",
            "state_code": "FYB",
            "type": "province",
            "latitude": "36.07956130",
            "longitude": "64.90595500"
        }
    },
    {
        "model": "master.state",
        "pk": 3870,
        "fields": {
            "name": "Ghazni",
            "country_id": 1,
            "country_code": "AF",
            "country_name": "Afghanistan",
            "state_code": "GHA",
            "type": "province",
            "latitude": "33.54505870",
            "longitude": "68.41739720"
        }
    },
    {
        "model": "master.state",
        "pk": 3888,
        "fields": {
            "name": "Gh\u014dr",
            "country_id": 1,
            "country_code": "AF",
            "country_name": "Afghanistan",
            "state_code": "GHO",
            "type": "province",
            "latitude": "34.09957760",
            "longitude": "64.90595500"
        }
    },
    {
        "model": "master.state",
        "pk": 3873,
        "fields": {
            "name": "Helmand",
            "country_id": 1,
            "country_code": "AF",
            "country_name": "Afghanistan",
            "state_code": "HEL",
            "type": "province",
            "latitude": "39.29893610",
            "longitude": "-76.61604720"
        }
    },
    {
        "model": "master.state",
        "pk": 3887,
        "fields": {
            "name": "Herat",
            "country_id": 1,
            "country_code": "AF",
            "country_name": "Afghanistan",
            "state_code": "HER",
            "type": "province",
            "latitude": "34.35286500",
            "longitude": "62.20402870"
        }
    },
    {
        "model": "master.state",
        "pk": 3886,
        "fields": {
            "name": "Jowzjan",
            "country_id": 1,
            "country_code": "AF",
            "country_name": "Afghanistan",
            "state_code": "JOW",
            "type": "province",
            "latitude": "36.89696920",
            "longitude": "65.66585680"
        }
    },
    {
        "model": "master.state",
        "pk": 3902,
        "fields": {
            "name": "Kabul",
            "country_id": 1,
            "country_code": "AF",
            "country_name": "Afghanistan",
            "state_code": "KAB",
            "type": "province",
            "latitude": "34.55534940",
            "longitude": "69.20748600"
        }
    },
    {
        "model": "master.state",
        "pk": 3890,
        "fields": {
            "name": "Kandahar",
            "country_id": 1,
            "country_code": "AF",
            "country_name": "Afghanistan",
            "state_code": "KAN",
            "type": "province",
            "latitude": "31.62887100",
            "longitude": "65.73717490"
        }
    },
    {
        "model": "master.state",
        "pk": 3879,
        "fields": {
            "name": "Kapisa",
            "country_id": 1,
            "country_code": "AF",
            "country_name": "Afghanistan",
            "state_code": "KAP",
            "type": "province",
            "latitude": "34.98105720",
            "longitude": "69.62145620"
        }
    },
    {
        "model": "master.state",
        "pk": 3878,
        "fields": {
            "name": "Khost",
            "country_id": 1,
            "country_code": "AF",
            "country_name": "Afghanistan",
            "state_code": "KHO",
            "type": "province",
            "latitude": "33.33384720",
            "longitude": "69.93716730"
        }
    },
    {
        "model": "master.state",
        "pk": 3876,
        "fields": {
            "name": "Kunar",
            "country_id": 1,
            "country_code": "AF",
            "country_name": "Afghanistan",
            "state_code": "KNR",
            "type": "province",
            "latitude": "34.84658930",
            "longitude": "71.09731700"
        }
    },
    {
        "model": "master.state",
        "pk": 3900,
        "fields": {
            "name": "Kunduz Province",
            "country_id": 1,
            "country_code": "AF",
            "country_name": "Afghanistan",
            "state_code": "KDZ",
            "type": "province",
            "latitude": "36.72855110",
            "longitude": "68.86789820"
        }
    },
    {
        "model": "master.state",
        "pk": 3891,
        "fields": {
            "name": "Laghman",
            "country_id": 1,
            "country_code": "AF",
            "country_name": "Afghanistan",
            "state_code": "LAG",
            "type": "province",
            "latitude": "34.68976870",
            "longitude": "70.14558050"
        }
    },
    {
        "model": "master.state",
        "pk": 3897,
        "fields": {
            "name": "Logar",
            "country_id": 1,
            "country_code": "AF",
            "country_name": "Afghanistan",
            "state_code": "LOG",
            "type": "province",
            "latitude": "34.01455180",
            "longitude": "69.19239160"
        }
    },
    {
        "model": "master.state",
        "pk": 3882,
        "fields": {
            "name": "Nangarhar",
            "country_id": 1,
            "country_code": "AF",
            "country_name": "Afghanistan",
            "state_code": "NAN",
            "type": "province",
            "latitude": "34.17183130",
            "longitude": "70.62167940"
        }
    },
    {
        "model": "master.state",
        "pk": 3896,
        "fields": {
            "name": "Nimruz",
            "country_id": 1,
            "country_code": "AF",
            "country_name": "Afghanistan",
            "state_code": "NIM",
            "type": "province",
            "latitude": "31.02614880",
            "longitude": "62.45041540"
        }
    },
    {
        "model": "master.state",
        "pk": 3880,
        "fields": {
            "name": "Nuristan",
            "country_id": 1,
            "country_code": "AF",
            "country_name": "Afghanistan",
            "state_code": "NUR",
            "type": "province",
            "latitude": "35.32502230",
            "longitude": "70.90712360"
        }
    },
    {
        "model": "master.state",
        "pk": 3894,
        "fields": {
            "name": "Paktia",
            "country_id": 1,
            "country_code": "AF",
            "country_name": "Afghanistan",
            "state_code": "PIA",
            "type": "province",
            "latitude": "33.70619900",
            "longitude": "69.38310790"
        }
    },
    {
        "model": "master.state",
        "pk": 3877,
        "fields": {
            "name": "Paktika",
            "country_id": 1,
            "country_code": "AF",
            "country_name": "Afghanistan",
            "state_code": "PKA",
            "type": "province",
            "latitude": "32.26453860",
            "longitude": "68.52471490"
        }
    },
    {
        "model": "master.state",
        "pk": 3881,
        "fields": {
            "name": "Panjshir",
            "country_id": 1,
            "country_code": "AF",
            "country_name": "Afghanistan",
            "state_code": "PAN",
            "type": "province",
            "latitude": "38.88023910",
            "longitude": "-77.17172380"
        }
    },
    {
        "model": "master.state",
        "pk": 3895,
        "fields": {
            "name": "Parwan",
            "country_id": 1,
            "country_code": "AF",
            "country_name": "Afghanistan",
            "state_code": "PAR",
            "type": "province",
            "latitude": "34.96309770",
            "longitude": "68.81088490"
        }
    },
    {
        "model": "master.state",
        "pk": 3883,
        "fields": {
            "name": "Samangan",
            "country_id": 1,
            "country_code": "AF",
            "country_name": "Afghanistan",
            "state_code": "SAM",
            "type": "province",
            "latitude": "36.31555060",
            "longitude": "67.96428630"
        }
    },
    {
        "model": "master.state",
        "pk": 3885,
        "fields": {
            "name": "Sar-e Pol",
            "country_id": 1,
            "country_code": "AF",
            "country_name": "Afghanistan",
            "state_code": "SAR",
            "type": "province",
            "latitude": "36.21662800",
            "longitude": "65.93336000"
        }
    },
    {
        "model": "master.state",
        "pk": 3893,
        "fields": {
            "name": "Takhar",
            "country_id": 1,
            "country_code": "AF",
            "country_name": "Afghanistan",
            "state_code": "TAK",
            "type": "province",
            "latitude": "36.66980130",
            "longitude": "69.47845410"
        }
    },
    {
        "model": "master.state",
        "pk": 3898,
        "fields": {
            "name": "Urozgan",
            "country_id": 1,
            "country_code": "AF",
            "country_name": "Afghanistan",
            "state_code": "URU",
            "type": "province",
            "latitude": "32.92712870",
            "longitude": "66.14152630"
        }
    },
    {
        "model": "master.state",
        "pk": 3874,
        "fields": {
            "name": "Zabul",
            "country_id": 1,
            "country_code": "AF",
            "country_name": "Afghanistan",
            "state_code": "ZAB",
            "type": "province",
            "latitude": "32.19187820",
            "longitude": "67.18944880"
        }
    },
    {
        "model": "master.state",
        "pk": 5298,
        "fields": {
            "name": "Br\u00e4nd\u00f6",
            "country_id": 2,
            "country_code": "AX",
            "country_name": "Aland Islands",
            "state_code": null,
            "type": "municipality",
            "latitude": "60.41259080",
            "longitude": "21.02299420"
        }
    },
    {
        "model": "master.state",
        "pk": 5294,
        "fields": {
            "name": "Ecker\u00f6",
            "country_id": 2,
            "country_code": "AX",
            "country_name": "Aland Islands",
            "state_code": null,
            "type": "municipality",
            "latitude": "60.22318140",
            "longitude": "19.53893790"
        }
    },
    {
        "model": "master.state",
        "pk": 5289,
        "fields": {
            "name": "Finstr\u00f6m",
            "country_id": 2,
            "country_code": "AX",
            "country_name": "Aland Islands",
            "state_code": null,
            "type": "municipality",
            "latitude": "60.22993210",
            "longitude": "19.96746360"
        }
    },
    {
        "model": "master.state",
        "pk": 5295,
        "fields": {
            "name": "F\u00f6gl\u00f6",
            "country_id": 2,
            "country_code": "AX",
            "country_name": "Aland Islands",
            "state_code": null,
            "type": "municipality",
            "latitude": "60.01462770",
            "longitude": "20.39334070"
        }
    },
    {
        "model": "master.state",
        "pk": 5296,
        "fields": {
            "name": "Geta",
            "country_id": 2,
            "country_code": "AX",
            "country_name": "Aland Islands",
            "state_code": null,
            "type": "municipality",
            "latitude": "60.37497270",
            "longitude": "19.82659620"
        }
    },
    {
        "model": "master.state",
        "pk": 5292,
        "fields": {
            "name": "Hammarland",
            "country_id": 2,
            "country_code": "AX",
            "country_name": "Aland Islands",
            "state_code": null,
            "type": "municipality",
            "latitude": "60.21641830",
            "longitude": "19.71964030"
        }
    },
    {
        "model": "master.state",
        "pk": 5288,
        "fields": {
            "name": "Jomala",
            "country_id": 2,
            "country_code": "AX",
            "country_name": "Aland Islands",
            "state_code": null,
            "type": "municipality",
            "latitude": "60.15223910",
            "longitude": "19.87479810"
        }
    },
    {
        "model": "master.state",
        "pk": 5301,
        "fields": {
            "name": "K\u00f6kar",
            "country_id": 2,
            "country_code": "AX",
            "country_name": "Aland Islands",
            "state_code": null,
            "type": "municipality",
            "latitude": "59.92081700",
            "longitude": "20.88853020"
        }
    },
    {
        "model": "master.state",
        "pk": 5300,
        "fields": {
            "name": "Kumlinge",
            "country_id": 2,
            "country_code": "AX",
            "country_name": "Aland Islands",
            "state_code": null,
            "type": "municipality",
            "latitude": "60.25992720",
            "longitude": "20.75875000"
        }
    },
    {
        "model": "master.state",
        "pk": 5290,
        "fields": {
            "name": "Lemland",
            "country_id": 2,
            "country_code": "AX",
            "country_name": "Aland Islands",
            "state_code": null,
            "type": "municipality",
            "latitude": "60.06887050",
            "longitude": "20.06581400"
        }
    },
    {
        "model": "master.state",
        "pk": 5299,
        "fields": {
            "name": "Lumparland",
            "country_id": 2,
            "country_code": "AX",
            "country_name": "Aland Islands",
            "state_code": null,
            "type": "municipality",
            "latitude": "60.11523570",
            "longitude": "20.24142800"
        }
    },
    {
        "model": "master.state",
        "pk": 5287,
        "fields": {
            "name": "Mariehamn",
            "country_id": 2,
            "country_code": "AX",
            "country_name": "Aland Islands",
            "state_code": null,
            "type": "municipality",
            "latitude": "60.09455780",
            "longitude": "19.79505300"
        }
    },
    {
        "model": "master.state",
        "pk": 5291,
        "fields": {
            "name": "Saltvik",
            "country_id": 2,
            "country_code": "AX",
            "country_name": "Aland Islands",
            "state_code": null,
            "type": "municipality",
            "latitude": "60.27554460",
            "longitude": "20.04131920"
        }
    },
    {
        "model": "master.state",
        "pk": 5302,
        "fields": {
            "name": "Sottunga",
            "country_id": 2,
            "country_code": "AX",
            "country_name": "Aland Islands",
            "state_code": null,
            "type": "municipality",
            "latitude": "60.13079770",
            "longitude": "20.64598210"
        }
    },
    {
        "model": "master.state",
        "pk": 5293,
        "fields": {
            "name": "Sund",
            "country_id": 2,
            "country_code": "AX",
            "country_name": "Aland Islands",
            "state_code": null,
            "type": "municipality",
            "latitude": "60.23084760",
            "longitude": "19.82397050"
        }
    },
    {
        "model": "master.state",
        "pk": 5297,
        "fields": {
            "name": "V\u00e5rd\u00f6",
            "country_id": 2,
            "country_code": "AX",
            "country_name": "Aland Islands",
            "state_code": null,
            "type": "municipality",
            "latitude": "60.24233960",
            "longitude": "20.35281050"
        }
    },
    {
        "model": "master.state",
        "pk": 629,
        "fields": {
            "name": "Berat",
            "country_id": 3,
            "country_code": "AL",
            "country_name": "Albania",
            "state_code": "BR",
            "type": "district",
            "latitude": "40.70863770",
            "longitude": "19.94373140"
        }
    },
    {
        "model": "master.state",
        "pk": 603,
        "fields": {
            "name": "Berat",
            "country_id": 3,
            "country_code": "AL",
            "country_name": "Albania",
            "state_code": "01",
            "type": "county",
            "latitude": "40.69530120",
            "longitude": "20.04496620"
        }
    },
    {
        "model": "master.state",
        "pk": 607,
        "fields": {
            "name": "Bulqiz\u00eb",
            "country_id": 3,
            "country_code": "AL",
            "country_name": "Albania",
            "state_code": "BU",
            "type": "district",
            "latitude": "41.49425870",
            "longitude": "20.21471570"
        }
    },
    {
        "model": "master.state",
        "pk": 618,
        "fields": {
            "name": "Delvin\u00eb",
            "country_id": 3,
            "country_code": "AL",
            "country_name": "Albania",
            "state_code": "DL",
            "type": "district",
            "latitude": "39.94813640",
            "longitude": "20.09558910"
        }
    },
    {
        "model": "master.state",
        "pk": 608,
        "fields": {
            "name": "Devoll",
            "country_id": 3,
            "country_code": "AL",
            "country_name": "Albania",
            "state_code": "DV",
            "type": "district",
            "latitude": "40.64473470",
            "longitude": "20.95066360"
        }
    },
    {
        "model": "master.state",
        "pk": 610,
        "fields": {
            "name": "Dib\u00ebr",
            "country_id": 3,
            "country_code": "AL",
            "country_name": "Albania",
            "state_code": "09",
            "type": "county",
            "latitude": "41.58881630",
            "longitude": "20.23556470"
        }
    },
    {
        "model": "master.state",
        "pk": 605,
        "fields": {
            "name": "Dib\u00ebr",
            "country_id": 3,
            "country_code": "AL",
            "country_name": "Albania",
            "state_code": "DI",
            "type": "district",
            "latitude": "41.58881630",
            "longitude": "20.23556470"
        }
    },
    {
        "model": "master.state",
        "pk": 639,
        "fields": {
            "name": "Durr\u00ebs",
            "country_id": 3,
            "country_code": "AL",
            "country_name": "Albania",
            "state_code": "DR",
            "type": "district",
            "latitude": "41.37065170",
            "longitude": "19.52110630"
        }
    },
    {
        "model": "master.state",
        "pk": 632,
        "fields": {
            "name": "Durr\u00ebs",
            "country_id": 3,
            "country_code": "AL",
            "country_name": "Albania",
            "state_code": "02",
            "type": "county",
            "latitude": "41.50809720",
            "longitude": "19.61631850"
        }
    },
    {
        "model": "master.state",
        "pk": 598,
        "fields": {
            "name": "Elbasan",
            "country_id": 3,
            "country_code": "AL",
            "country_name": "Albania",
            "state_code": "03",
            "type": "county",
            "latitude": "41.12666720",
            "longitude": "20.23556470"
        }
    },
    {
        "model": "master.state",
        "pk": 627,
        "fields": {
            "name": "Fier",
            "country_id": 3,
            "country_code": "AL",
            "country_name": "Albania",
            "state_code": "FR",
            "type": "district",
            "latitude": "40.72750400",
            "longitude": "19.56275960"
        }
    },
    {
        "model": "master.state",
        "pk": 631,
        "fields": {
            "name": "Fier",
            "country_id": 3,
            "country_code": "AL",
            "country_name": "Albania",
            "state_code": "04",
            "type": "county",
            "latitude": "40.91913920",
            "longitude": "19.66393090"
        }
    },
    {
        "model": "master.state",
        "pk": 621,
        "fields": {
            "name": "Gjirokast\u00ebr",
            "country_id": 3,
            "country_code": "AL",
            "country_name": "Albania",
            "state_code": "GJ",
            "type": "district",
            "latitude": "40.06728740",
            "longitude": "20.10452290"
        }
    },
    {
        "model": "master.state",
        "pk": 604,
        "fields": {
            "name": "Gjirokast\u00ebr",
            "country_id": 3,
            "country_code": "AL",
            "country_name": "Albania",
            "state_code": "05",
            "type": "county",
            "latitude": "40.06728740",
            "longitude": "20.10452290"
        }
    },
    {
        "model": "master.state",
        "pk": 617,
        "fields": {
            "name": "Gramsh",
            "country_id": 3,
            "country_code": "AL",
            "country_name": "Albania",
            "state_code": "GR",
            "type": "district",
            "latitude": "40.86698730",
            "longitude": "20.18493230"
        }
    },
    {
        "model": "master.state",
        "pk": 600,
        "fields": {
            "name": "Has",
            "country_id": 3,
            "country_code": "AL",
            "country_name": "Albania",
            "state_code": "HA",
            "type": "district",
            "latitude": "42.79013360",
            "longitude": "-83.61220120"
        }
    },
    {
        "model": "master.state",
        "pk": 594,
        "fields": {
            "name": "Kavaj\u00eb",
            "country_id": 3,
            "country_code": "AL",
            "country_name": "Albania",
            "state_code": "KA",
            "type": "district",
            "latitude": "41.18445290",
            "longitude": "19.56275960"
        }
    },
    {
        "model": "master.state",
        "pk": 628,
        "fields": {
            "name": "Kolonj\u00eb",
            "country_id": 3,
            "country_code": "AL",
            "country_name": "Albania",
            "state_code": "ER",
            "type": "district",
            "latitude": "40.33732620",
            "longitude": "20.67946760"
        }
    },
    {
        "model": "master.state",
        "pk": 630,
        "fields": {
            "name": "Kor\u00e7\u00eb",
            "country_id": 3,
            "country_code": "AL",
            "country_name": "Albania",
            "state_code": "06",
            "type": "county",
            "latitude": "40.59056700",
            "longitude": "20.61689210"
        }
    },
    {
        "model": "master.state",
        "pk": 597,
        "fields": {
            "name": "Kor\u00e7\u00eb",
            "country_id": 3,
            "country_code": "AL",
            "country_name": "Albania",
            "state_code": "KO",
            "type": "district",
            "latitude": "40.59056700",
            "longitude": "20.61689210"
        }
    },
    {
        "model": "master.state",
        "pk": 614,
        "fields": {
            "name": "Kruj\u00eb",
            "country_id": 3,
            "country_code": "AL",
            "country_name": "Albania",
            "state_code": "KR",
            "type": "district",
            "latitude": "41.50947650",
            "longitude": "19.77107320"
        }
    },
    {
        "model": "master.state",
        "pk": 612,
        "fields": {
            "name": "Ku\u00e7ov\u00eb",
            "country_id": 3,
            "country_code": "AL",
            "country_name": "Albania",
            "state_code": "KC",
            "type": "district",
            "latitude": "40.78370630",
            "longitude": "19.87823480"
        }
    },
    {
        "model": "master.state",
        "pk": 623,
        "fields": {
            "name": "Kuk\u00ebs",
            "country_id": 3,
            "country_code": "AL",
            "country_name": "Albania",
            "state_code": "KU",
            "type": "district",
            "latitude": "42.08074640",
            "longitude": "20.41429230"
        }
    },
    {
        "model": "master.state",
        "pk": 601,
        "fields": {
            "name": "Kuk\u00ebs",
            "country_id": 3,
            "country_code": "AL",
            "country_name": "Albania",
            "state_code": "07",
            "type": "county",
            "latitude": "42.08074640",
            "longitude": "20.41429230"
        }
    },
    {
        "model": "master.state",
        "pk": 622,
        "fields": {
            "name": "Kurbin",
            "country_id": 3,
            "country_code": "AL",
            "country_name": "Albania",
            "state_code": "KB",
            "type": "district",
            "latitude": "41.64126440",
            "longitude": "19.70559500"
        }
    },
    {
        "model": "master.state",
        "pk": 609,
        "fields": {
            "name": "Lezh\u00eb",
            "country_id": 3,
            "country_code": "AL",
            "country_name": "Albania",
            "state_code": "08",
            "type": "county",
            "latitude": "41.78137590",
            "longitude": "19.80679160"
        }
    },
    {
        "model": "master.state",
        "pk": 595,
        "fields": {
            "name": "Lezh\u00eb",
            "country_id": 3,
            "country_code": "AL",
            "country_name": "Albania",
            "state_code": "LE",
            "type": "district",
            "latitude": "41.78607300",
            "longitude": "19.64607580"
        }
    },
    {
        "model": "master.state",
        "pk": 596,
        "fields": {
            "name": "Librazhd",
            "country_id": 3,
            "country_code": "AL",
            "country_name": "Albania",
            "state_code": "LB",
            "type": "district",
            "latitude": "41.18292320",
            "longitude": "20.31747690"
        }
    },
    {
        "model": "master.state",
        "pk": 599,
        "fields": {
            "name": "Lushnj\u00eb",
            "country_id": 3,
            "country_code": "AL",
            "country_name": "Albania",
            "state_code": "LU",
            "type": "district",
            "latitude": "40.94198300",
            "longitude": "19.69964280"
        }
    },
    {
        "model": "master.state",
        "pk": 602,
        "fields": {
            "name": "Mal\u00ebsi e Madhe",
            "country_id": 3,
            "country_code": "AL",
            "country_name": "Albania",
            "state_code": "MM",
            "type": "district",
            "latitude": "42.42451730",
            "longitude": "19.61631850"
        }
    },
    {
        "model": "master.state",
        "pk": 637,
        "fields": {
            "name": "Mallakast\u00ebr",
            "country_id": 3,
            "country_code": "AL",
            "country_name": "Albania",
            "state_code": "MK",
            "type": "district",
            "latitude": "40.52733760",
            "longitude": "19.78297910"
        }
    },
    {
        "model": "master.state",
        "pk": 635,
        "fields": {
            "name": "Mat",
            "country_id": 3,
            "country_code": "AL",
            "country_name": "Albania",
            "state_code": "MT",
            "type": "district",
            "latitude": "41.59376750",
            "longitude": "19.99732440"
        }
    },
    {
        "model": "master.state",
        "pk": 638,
        "fields": {
            "name": "Mirdit\u00eb",
            "country_id": 3,
            "country_code": "AL",
            "country_name": "Albania",
            "state_code": "MR",
            "type": "district",
            "latitude": "41.76428600",
            "longitude": "19.90205090"
        }
    },
    {
        "model": "master.state",
        "pk": 619,
        "fields": {
            "name": "Peqin",
            "country_id": 3,
            "country_code": "AL",
            "country_name": "Albania",
            "state_code": "PQ",
            "type": "district",
            "latitude": "41.04709020",
            "longitude": "19.75023840"
        }
    },
    {
        "model": "master.state",
        "pk": 625,
        "fields": {
            "name": "P\u00ebrmet",
            "country_id": 3,
            "country_code": "AL",
            "country_name": "Albania",
            "state_code": "PR",
            "type": "district",
            "latitude": "40.23618370",
            "longitude": "20.35173340"
        }
    },
    {
        "model": "master.state",
        "pk": 606,
        "fields": {
            "name": "Pogradec",
            "country_id": 3,
            "country_code": "AL",
            "country_name": "Albania",
            "state_code": "PG",
            "type": "district",
            "latitude": "40.90153140",
            "longitude": "20.65562890"
        }
    },
    {
        "model": "master.state",
        "pk": 620,
        "fields": {
            "name": "Puk\u00eb",
            "country_id": 3,
            "country_code": "AL",
            "country_name": "Albania",
            "state_code": "PU",
            "type": "district",
            "latitude": "42.04697720",
            "longitude": "19.89609680"
        }
    },
    {
        "model": "master.state",
        "pk": 624,
        "fields": {
            "name": "Sarand\u00eb",
            "country_id": 3,
            "country_code": "AL",
            "country_name": "Albania",
            "state_code": "SR",
            "type": "district",
            "latitude": "39.85921190",
            "longitude": "20.02710010"
        }
    },
    {
        "model": "master.state",
        "pk": 611,
        "fields": {
            "name": "Shkod\u00ebr",
            "country_id": 3,
            "country_code": "AL",
            "country_name": "Albania",
            "state_code": "10",
            "type": "county",
            "latitude": "42.15037100",
            "longitude": "19.66393090"
        }
    },
    {
        "model": "master.state",
        "pk": 626,
        "fields": {
            "name": "Shkod\u00ebr",
            "country_id": 3,
            "country_code": "AL",
            "country_name": "Albania",
            "state_code": "SH",
            "type": "district",
            "latitude": "42.06929850",
            "longitude": "19.50325590"
        }
    },
    {
        "model": "master.state",
        "pk": 593,
        "fields": {
            "name": "Skrapar",
            "country_id": 3,
            "country_code": "AL",
            "country_name": "Albania",
            "state_code": "SK",
            "type": "district",
            "latitude": "40.53499460",
            "longitude": "20.28322170"
        }
    },
    {
        "model": "master.state",
        "pk": 616,
        "fields": {
            "name": "Tepelen\u00eb",
            "country_id": 3,
            "country_code": "AL",
            "country_name": "Albania",
            "state_code": "TE",
            "type": "district",
            "latitude": "40.29666320",
            "longitude": "20.01816730"
        }
    },
    {
        "model": "master.state",
        "pk": 633,
        "fields": {
            "name": "Tirana",
            "country_id": 3,
            "country_code": "AL",
            "country_name": "Albania",
            "state_code": "TR",
            "type": "district",
            "latitude": "41.32754590",
            "longitude": "19.81869820"
        }
    },
    {
        "model": "master.state",
        "pk": 615,
        "fields": {
            "name": "Tirana",
            "country_id": 3,
            "country_code": "AL",
            "country_name": "Albania",
            "state_code": "11",
            "type": "county",
            "latitude": "41.24275980",
            "longitude": "19.80679160"
        }
    },
    {
        "model": "master.state",
        "pk": 636,
        "fields": {
            "name": "Tropoj\u00eb",
            "country_id": 3,
            "country_code": "AL",
            "country_name": "Albania",
            "state_code": "TP",
            "type": "district",
            "latitude": "42.39821510",
            "longitude": "20.16259550"
        }
    },
    {
        "model": "master.state",
        "pk": 634,
        "fields": {
            "name": "Vlor\u00eb",
            "country_id": 3,
            "country_code": "AL",
            "country_name": "Albania",
            "state_code": "12",
            "type": "county",
            "latitude": "40.15009600",
            "longitude": "19.80679160"
        }
    },
    {
        "model": "master.state",
        "pk": 613,
        "fields": {
            "name": "Vlor\u00eb",
            "country_id": 3,
            "country_code": "AL",
            "country_name": "Albania",
            "state_code": "VL",
            "type": "district",
            "latitude": "40.46606680",
            "longitude": "19.49135600"
        }
    },
    {
        "model": "master.state",
        "pk": 1118,
        "fields": {
            "name": "Adrar",
            "country_id": 4,
            "country_code": "DZ",
            "country_name": "Algeria",
            "state_code": "01",
            "type": "province",
            "latitude": "26.41813100",
            "longitude": "-0.60147170"
        }
    },
    {
        "model": "master.state",
        "pk": 1119,
        "fields": {
            "name": "A\u00efn Defla",
            "country_id": 4,
            "country_code": "DZ",
            "country_name": "Algeria",
            "state_code": "44",
            "type": "province",
            "latitude": "36.25094290",
            "longitude": "1.93938150"
        }
    },
    {
        "model": "master.state",
        "pk": 1122,
        "fields": {
            "name": "A\u00efn T\u00e9mouchent",
            "country_id": 4,
            "country_code": "DZ",
            "country_name": "Algeria",
            "state_code": "46",
            "type": "province",
            "latitude": "35.29926980",
            "longitude": "-1.13927920"
        }
    },
    {
        "model": "master.state",
        "pk": 1144,
        "fields": {
            "name": "Algiers",
            "country_id": 4,
            "country_code": "DZ",
            "country_name": "Algeria",
            "state_code": "16",
            "type": "province",
            "latitude": "36.69972940",
            "longitude": "3.05761990"
        }
    },
    {
        "model": "master.state",
        "pk": 1103,
        "fields": {
            "name": "Annaba",
            "country_id": 4,
            "country_code": "DZ",
            "country_name": "Algeria",
            "state_code": "23",
            "type": "province",
            "latitude": "36.80205080",
            "longitude": "7.52472430"
        }
    },
    {
        "model": "master.state",
        "pk": 1142,
        "fields": {
            "name": "Batna",
            "country_id": 4,
            "country_code": "DZ",
            "country_name": "Algeria",
            "state_code": "05",
            "type": "province",
            "latitude": "35.59659540",
            "longitude": "5.89871390"
        }
    },
    {
        "model": "master.state",
        "pk": 1108,
        "fields": {
            "name": "B\u00e9char",
            "country_id": 4,
            "country_code": "DZ",
            "country_name": "Algeria",
            "state_code": "08",
            "type": "province",
            "latitude": "31.62380980",
            "longitude": "-2.21624430"
        }
    },
    {
        "model": "master.state",
        "pk": 1128,
        "fields": {
            "name": "B\u00e9ja\u00efa",
            "country_id": 4,
            "country_code": "DZ",
            "country_name": "Algeria",
            "state_code": "06",
            "type": "province",
            "latitude": "36.75152580",
            "longitude": "5.05568370"
        }
    },
    {
        "model": "master.state",
        "pk": 4909,
        "fields": {
            "name": "B\u00e9ni Abb\u00e8s",
            "country_id": 4,
            "country_code": "DZ",
            "country_name": "Algeria",
            "state_code": "53",
            "type": "province",
            "latitude": "30.08310420",
            "longitude": "-2.83450520"
        }
    },
    {
        "model": "master.state",
        "pk": 1114,
        "fields": {
            "name": "Biskra",
            "country_id": 4,
            "country_code": "DZ",
            "country_name": "Algeria",
            "state_code": "07",
            "type": "province",
            "latitude": "34.84494370",
            "longitude": "5.72485670"
        }
    },
    {
        "model": "master.state",
        "pk": 1111,
        "fields": {
            "name": "Blida",
            "country_id": 4,
            "country_code": "DZ",
            "country_name": "Algeria",
            "state_code": "09",
            "type": "province",
            "latitude": "36.53112300",
            "longitude": "2.89762540"
        }
    },
    {
        "model": "master.state",
        "pk": 4908,
        "fields": {
            "name": "Bordj Baji Mokhtar",
            "country_id": 4,
            "country_code": "DZ",
            "country_name": "Algeria",
            "state_code": "52",
            "type": "province",
            "latitude": "22.96633500",
            "longitude": "-3.94727320"
        }
    },
    {
        "model": "master.state",
        "pk": 1116,
        "fields": {
            "name": "Bordj Bou Arr\u00e9ridj",
            "country_id": 4,
            "country_code": "DZ",
            "country_name": "Algeria",
            "state_code": "34",
            "type": "province",
            "latitude": "36.07399250",
            "longitude": "4.76302710"
        }
    },
    {
        "model": "master.state",
        "pk": 1104,
        "fields": {
            "name": "Bou\u00efra",
            "country_id": 4,
            "country_code": "DZ",
            "country_name": "Algeria",
            "state_code": "10",
            "type": "province",
            "latitude": "36.36918460",
            "longitude": "3.90061940"
        }
    },
    {
        "model": "master.state",
        "pk": 1125,
        "fields": {
            "name": "Boumerd\u00e8s",
            "country_id": 4,
            "country_code": "DZ",
            "country_name": "Algeria",
            "state_code": "35",
            "type": "province",
            "latitude": "36.68395590",
            "longitude": "3.62178020"
        }
    },
    {
        "model": "master.state",
        "pk": 1105,
        "fields": {
            "name": "Chlef",
            "country_id": 4,
            "country_code": "DZ",
            "country_name": "Algeria",
            "state_code": "02",
            "type": "province",
            "latitude": "36.16935150",
            "longitude": "1.28910360"
        }
    },
    {
        "model": "master.state",
        "pk": 1121,
        "fields": {
            "name": "Constantine",
            "country_id": 4,
            "country_code": "DZ",
            "country_name": "Algeria",
            "state_code": "25",
            "type": "province",
            "latitude": "36.33739110",
            "longitude": "6.66381200"
        }
    },
    {
        "model": "master.state",
        "pk": 4912,
        "fields": {
            "name": "Djanet",
            "country_id": 4,
            "country_code": "DZ",
            "country_name": "Algeria",
            "state_code": "56",
            "type": "province",
            "latitude": "23.83108720",
            "longitude": "8.70046720"
        }
    },
    {
        "model": "master.state",
        "pk": 1098,
        "fields": {
            "name": "Djelfa",
            "country_id": 4,
            "country_code": "DZ",
            "country_name": "Algeria",
            "state_code": "17",
            "type": "province",
            "latitude": "34.67039560",
            "longitude": "3.25037610"
        }
    },
    {
        "model": "master.state",
        "pk": 1129,
        "fields": {
            "name": "El Bayadh",
            "country_id": 4,
            "country_code": "DZ",
            "country_name": "Algeria",
            "state_code": "32",
            "type": "province",
            "latitude": "32.71488240",
            "longitude": "0.90566230"
        }
    },
    {
        "model": "master.state",
        "pk": 4905,
        "fields": {
            "name": "El M'ghair",
            "country_id": 4,
            "country_code": "DZ",
            "country_name": "Algeria",
            "state_code": "49",
            "type": "province",
            "latitude": "33.95405610",
            "longitude": "5.13464180"
        }
    },
    {
        "model": "master.state",
        "pk": 4906,
        "fields": {
            "name": "El Menia",
            "country_id": 4,
            "country_code": "DZ",
            "country_name": "Algeria",
            "state_code": "50",
            "type": "province",
            "latitude": "31.36422500",
            "longitude": "2.57844950"
        }
    },
    {
        "model": "master.state",
        "pk": 1099,
        "fields": {
            "name": "El Oued",
            "country_id": 4,
            "country_code": "DZ",
            "country_name": "Algeria",
            "state_code": "39",
            "type": "province",
            "latitude": "33.36781100",
            "longitude": "6.85165110"
        }
    },
    {
        "model": "master.state",
        "pk": 1100,
        "fields": {
            "name": "El Tarf",
            "country_id": 4,
            "country_code": "DZ",
            "country_name": "Algeria",
            "state_code": "36",
            "type": "province",
            "latitude": "36.75766780",
            "longitude": "8.30763430"
        }
    },
    {
        "model": "master.state",
        "pk": 1127,
        "fields": {
            "name": "Gharda\u00efa",
            "country_id": 4,
            "country_code": "DZ",
            "country_name": "Algeria",
            "state_code": "47",
            "type": "province",
            "latitude": "32.49437410",
            "longitude": "3.64446000"
        }
    },
    {
        "model": "master.state",
        "pk": 1137,
        "fields": {
            "name": "Guelma",
            "country_id": 4,
            "country_code": "DZ",
            "country_name": "Algeria",
            "state_code": "24",
            "type": "province",
            "latitude": "36.46274440",
            "longitude": "7.43308330"
        }
    },
    {
        "model": "master.state",
        "pk": 1112,
        "fields": {
            "name": "Illizi",
            "country_id": 4,
            "country_code": "DZ",
            "country_name": "Algeria",
            "state_code": "33",
            "type": "province",
            "latitude": "26.16900050",
            "longitude": "8.48424650"
        }
    },
    {
        "model": "master.state",
        "pk": 4914,
        "fields": {
            "name": "In Guezzam",
            "country_id": 4,
            "country_code": "DZ",
            "country_name": "Algeria",
            "state_code": "58",
            "type": "province",
            "latitude": "20.38643230",
            "longitude": "4.77893940"
        }
    },
    {
        "model": "master.state",
        "pk": 4913,
        "fields": {
            "name": "In Salah",
            "country_id": 4,
            "country_code": "DZ",
            "country_name": "Algeria",
            "state_code": "57",
            "type": "province",
            "latitude": "27.21492290",
            "longitude": "1.84843960"
        }
    },
    {
        "model": "master.state",
        "pk": 1113,
        "fields": {
            "name": "Jijel",
            "country_id": 4,
            "country_code": "DZ",
            "country_name": "Algeria",
            "state_code": "18",
            "type": "province",
            "latitude": "36.71796810",
            "longitude": "5.98325770"
        }
    },
    {
        "model": "master.state",
        "pk": 1126,
        "fields": {
            "name": "Khenchela",
            "country_id": 4,
            "country_code": "DZ",
            "country_name": "Algeria",
            "state_code": "40",
            "type": "province",
            "latitude": "35.42694040",
            "longitude": "7.14601550"
        }
    },
    {
        "model": "master.state",
        "pk": 1138,
        "fields": {
            "name": "Laghouat",
            "country_id": 4,
            "country_code": "DZ",
            "country_name": "Algeria",
            "state_code": "03",
            "type": "province",
            "latitude": "33.80783410",
            "longitude": "2.86282940"
        }
    },
    {
        "model": "master.state",
        "pk": 1134,
        "fields": {
            "name": "M'Sila",
            "country_id": 4,
            "country_code": "DZ",
            "country_name": "Algeria",
            "state_code": "28",
            "type": "province",
            "latitude": "35.71866460",
            "longitude": "4.52334230"
        }
    },
    {
        "model": "master.state",
        "pk": 1124,
        "fields": {
            "name": "Mascara",
            "country_id": 4,
            "country_code": "DZ",
            "country_name": "Algeria",
            "state_code": "29",
            "type": "province",
            "latitude": "35.39041250",
            "longitude": "0.14949880"
        }
    },
    {
        "model": "master.state",
        "pk": 1109,
        "fields": {
            "name": "M\u00e9d\u00e9a",
            "country_id": 4,
            "country_code": "DZ",
            "country_name": "Algeria",
            "state_code": "26",
            "type": "province",
            "latitude": "36.26370780",
            "longitude": "2.75878570"
        }
    },
    {
        "model": "master.state",
        "pk": 1132,
        "fields": {
            "name": "Mila",
            "country_id": 4,
            "country_code": "DZ",
            "country_name": "Algeria",
            "state_code": "43",
            "type": "province",
            "latitude": "36.36479570",
            "longitude": "6.15269850"
        }
    },
    {
        "model": "master.state",
        "pk": 1140,
        "fields": {
            "name": "Mostaganem",
            "country_id": 4,
            "country_code": "DZ",
            "country_name": "Algeria",
            "state_code": "27",
            "type": "province",
            "latitude": "35.95830540",
            "longitude": "0.33718890"
        }
    },
    {
        "model": "master.state",
        "pk": 1102,
        "fields": {
            "name": "Naama",
            "country_id": 4,
            "country_code": "DZ",
            "country_name": "Algeria",
            "state_code": "45",
            "type": "province",
            "latitude": "33.26673170",
            "longitude": "-0.31286590"
        }
    },
    {
        "model": "master.state",
        "pk": 1101,
        "fields": {
            "name": "Oran",
            "country_id": 4,
            "country_code": "DZ",
            "country_name": "Algeria",
            "state_code": "31",
            "type": "province",
            "latitude": "35.60823510",
            "longitude": "-0.56360900"
        }
    },
    {
        "model": "master.state",
        "pk": 1139,
        "fields": {
            "name": "Ouargla",
            "country_id": 4,
            "country_code": "DZ",
            "country_name": "Algeria",
            "state_code": "30",
            "type": "province",
            "latitude": "32.22648630",
            "longitude": "5.72998210"
        }
    },
    {
        "model": "master.state",
        "pk": 4907,
        "fields": {
            "name": "Ouled Djellal",
            "country_id": 4,
            "country_code": "DZ",
            "country_name": "Algeria",
            "state_code": "51",
            "type": "province",
            "latitude": "34.41782210",
            "longitude": "4.96858430"
        }
    },
    {
        "model": "master.state",
        "pk": 1136,
        "fields": {
            "name": "Oum El Bouaghi",
            "country_id": 4,
            "country_code": "DZ",
            "country_name": "Algeria",
            "state_code": "04",
            "type": "province",
            "latitude": "35.86887890",
            "longitude": "7.11082660"
        }
    },
    {
        "model": "master.state",
        "pk": 1130,
        "fields": {
            "name": "Relizane",
            "country_id": 4,
            "country_code": "DZ",
            "country_name": "Algeria",
            "state_code": "48",
            "type": "province",
            "latitude": "35.73834050",
            "longitude": "0.75328090"
        }
    },
    {
        "model": "master.state",
        "pk": 1123,
        "fields": {
            "name": "Sa\u00efda",
            "country_id": 4,
            "country_code": "DZ",
            "country_name": "Algeria",
            "state_code": "20",
            "type": "province",
            "latitude": "34.84152070",
            "longitude": "0.14560550"
        }
    },
    {
        "model": "master.state",
        "pk": 1141,
        "fields": {
            "name": "S\u00e9tif",
            "country_id": 4,
            "country_code": "DZ",
            "country_name": "Algeria",
            "state_code": "19",
            "type": "province",
            "latitude": "36.30733890",
            "longitude": "5.56172790"
        }
    },
    {
        "model": "master.state",
        "pk": 4902,
        "fields": {
            "name": "Sidi Bel Abb\u00e8s",
            "country_id": 4,
            "country_code": "DZ",
            "country_name": "Algeria",
            "state_code": "22",
            "type": "province",
            "latitude": "34.68060240",
            "longitude": "-1.09994950"
        }
    },
    {
        "model": "master.state",
        "pk": 1110,
        "fields": {
            "name": "Skikda",
            "country_id": 4,
            "country_code": "DZ",
            "country_name": "Algeria",
            "state_code": "21",
            "type": "province",
            "latitude": "36.67211980",
            "longitude": "6.83509990"
        }
    },
    {
        "model": "master.state",
        "pk": 1143,
        "fields": {
            "name": "Souk Ahras",
            "country_id": 4,
            "country_code": "DZ",
            "country_name": "Algeria",
            "state_code": "41",
            "type": "province",
            "latitude": "36.28010620",
            "longitude": "7.93840330"
        }
    },
    {
        "model": "master.state",
        "pk": 1135,
        "fields": {
            "name": "Tamanghasset",
            "country_id": 4,
            "country_code": "DZ",
            "country_name": "Algeria",
            "state_code": "11",
            "type": "province",
            "latitude": "22.79029720",
            "longitude": "5.51932680"
        }
    },
    {
        "model": "master.state",
        "pk": 1117,
        "fields": {
            "name": "T\u00e9bessa",
            "country_id": 4,
            "country_code": "DZ",
            "country_name": "Algeria",
            "state_code": "12",
            "type": "province",
            "latitude": "35.12906910",
            "longitude": "7.95928630"
        }
    },
    {
        "model": "master.state",
        "pk": 1106,
        "fields": {
            "name": "Tiaret",
            "country_id": 4,
            "country_code": "DZ",
            "country_name": "Algeria",
            "state_code": "14",
            "type": "province",
            "latitude": "35.37086890",
            "longitude": "1.32178520"
        }
    },
    {
        "model": "master.state",
        "pk": 4910,
        "fields": {
            "name": "Timimoun",
            "country_id": 4,
            "country_code": "DZ",
            "country_name": "Algeria",
            "state_code": "54",
            "type": "province",
            "latitude": "29.67890600",
            "longitude": "0.50046080"
        }
    },
    {
        "model": "master.state",
        "pk": 1120,
        "fields": {
            "name": "Tindouf",
            "country_id": 4,
            "country_code": "DZ",
            "country_name": "Algeria",
            "state_code": "37",
            "type": "province",
            "latitude": "27.80631190",
            "longitude": "-5.72998210"
        }
    },
    {
        "model": "master.state",
        "pk": 1115,
        "fields": {
            "name": "Tipasa",
            "country_id": 4,
            "country_code": "DZ",
            "country_name": "Algeria",
            "state_code": "42",
            "type": "province",
            "latitude": "36.54626500",
            "longitude": "2.18432850"
        }
    },
    {
        "model": "master.state",
        "pk": 1133,
        "fields": {
            "name": "Tissemsilt",
            "country_id": 4,
            "country_code": "DZ",
            "country_name": "Algeria",
            "state_code": "38",
            "type": "province",
            "latitude": "35.60537810",
            "longitude": "1.81309800"
        }
    },
    {
        "model": "master.state",
        "pk": 1131,
        "fields": {
            "name": "Tizi Ouzou",
            "country_id": 4,
            "country_code": "DZ",
            "country_name": "Algeria",
            "state_code": "15",
            "type": "province",
            "latitude": "36.70691100",
            "longitude": "4.23333550"
        }
    },
    {
        "model": "master.state",
        "pk": 1107,
        "fields": {
            "name": "Tlemcen",
            "country_id": 4,
            "country_code": "DZ",
            "country_name": "Algeria",
            "state_code": "13",
            "type": "province",
            "latitude": "34.67802840",
            "longitude": "-1.36621600"
        }
    },
    {
        "model": "master.state",
        "pk": 4911,
        "fields": {
            "name": "Touggourt",
            "country_id": 4,
            "country_code": "DZ",
            "country_name": "Algeria",
            "state_code": "55",
            "type": "province",
            "latitude": "33.12484760",
            "longitude": "5.78327150"
        }
    },
    {
        "model": "master.state",
        "pk": 5375,
        "fields": {
            "name": "Eastern",
            "country_id": 5,
            "country_code": "AS",
            "country_name": "American Samoa",
            "state_code": "02",
            "type": "district",
            "latitude": "-14.27560390",
            "longitude": "-170.80855920"
        }
    },
    {
        "model": "master.state",
        "pk": 5376,
        "fields": {
            "name": "Manu\u02bba",
            "country_id": 5,
            "country_code": "AS",
            "country_name": "American Samoa",
            "state_code": "03",
            "type": "district",
            "latitude": "-14.21126410",
            "longitude": "-169.71118920"
        }
    },
    {
        "model": "master.state",
        "pk": 5378,
        "fields": {
            "name": "Rose",
            "country_id": 5,
            "country_code": "AS",
            "country_name": "American Samoa",
            "state_code": "05",
            "type": "atoll",
            "latitude": "-14.54491610",
            "longitude": "-168.17632920"
        }
    },
    {
        "model": "master.state",
        "pk": 5377,
        "fields": {
            "name": "Swains",
            "country_id": 5,
            "country_code": "AS",
            "country_name": "American Samoa",
            "state_code": "04",
            "type": "atoll",
            "latitude": "-11.05658780",
            "longitude": "-171.08829090"
        }
    },
    {
        "model": "master.state",
        "pk": 5374,
        "fields": {
            "name": "Western",
            "country_id": 5,
            "country_code": "AS",
            "country_name": "American Samoa",
            "state_code": "01",
            "type": "district",
            "latitude": "-14.33307510",
            "longitude": "-170.94315020"
        }
    },
    {
        "model": "master.state",
        "pk": 488,
        "fields": {
            "name": "Andorra la Vella",
            "country_id": 6,
            "country_code": "AD",
            "country_name": "Andorra",
            "state_code": "07",
            "type": "parish",
            "latitude": "42.50631740",
            "longitude": "1.52183550"
        }
    },
    {
        "model": "master.state",
        "pk": 489,
        "fields": {
            "name": "Canillo",
            "country_id": 6,
            "country_code": "AD",
            "country_name": "Andorra",
            "state_code": "02",
            "type": "parish",
            "latitude": "42.59782490",
            "longitude": "1.65663770"
        }
    },
    {
        "model": "master.state",
        "pk": 487,
        "fields": {
            "name": "Encamp",
            "country_id": 6,
            "country_code": "AD",
            "country_name": "Andorra",
            "state_code": "03",
            "type": "parish",
            "latitude": "42.53597640",
            "longitude": "1.58367730"
        }
    },
    {
        "model": "master.state",
        "pk": 492,
        "fields": {
            "name": "Escaldes-Engordany",
            "country_id": 6,
            "country_code": "AD",
            "country_name": "Andorra",
            "state_code": "08",
            "type": "parish",
            "latitude": "42.49093790",
            "longitude": "1.58869660"
        }
    },
    {
        "model": "master.state",
        "pk": 493,
        "fields": {
            "name": "La Massana",
            "country_id": 6,
            "country_code": "AD",
            "country_name": "Andorra",
            "state_code": "04",
            "type": "parish",
            "latitude": "42.54562500",
            "longitude": "1.51473920"
        }
    },
    {
        "model": "master.state",
        "pk": 491,
        "fields": {
            "name": "Ordino",
            "country_id": 6,
            "country_code": "AD",
            "country_name": "Andorra",
            "state_code": "05",
            "type": "parish",
            "latitude": "42.59944330",
            "longitude": "1.54023270"
        }
    },
    {
        "model": "master.state",
        "pk": 490,
        "fields": {
            "name": "Sant Juli\u00e0 de L\u00f2ria",
            "country_id": 6,
            "country_code": "AD",
            "country_name": "Andorra",
            "state_code": "06",
            "type": "parish",
            "latitude": "42.45296310",
            "longitude": "1.49182350"
        }
    },
    {
        "model": "master.state",
        "pk": 221,
        "fields": {
            "name": "Bengo",
            "country_id": 7,
            "country_code": "AO",
            "country_name": "Angola",
            "state_code": "BGO",
            "type": "province",
            "latitude": "-9.10422570",
            "longitude": "13.72891670"
        }
    },
    {
        "model": "master.state",
        "pk": 218,
        "fields": {
            "name": "Benguela",
            "country_id": 7,
            "country_code": "AO",
            "country_name": "Angola",
            "state_code": "BGU",
            "type": "province",
            "latitude": "-12.80037440",
            "longitude": "13.91439900"
        }
    },
    {
        "model": "master.state",
        "pk": 212,
        "fields": {
            "name": "Bi\u00e9",
            "country_id": 7,
            "country_code": "AO",
            "country_name": "Angola",
            "state_code": "BIE",
            "type": "province",
            "latitude": "-12.57279070",
            "longitude": "17.66888700"
        }
    },
    {
        "model": "master.state",
        "pk": 228,
        "fields": {
            "name": "Cabinda",
            "country_id": 7,
            "country_code": "AO",
            "country_name": "Angola",
            "state_code": "CAB",
            "type": "province",
            "latitude": "-5.02487490",
            "longitude": "12.34638750"
        }
    },
    {
        "model": "master.state",
        "pk": 226,
        "fields": {
            "name": "Cuando Cubango",
            "country_id": 7,
            "country_code": "AO",
            "country_name": "Angola",
            "state_code": "CCU",
            "type": "province",
            "latitude": "-16.41808240",
            "longitude": "18.80761950"
        }
    },
    {
        "model": "master.state",
        "pk": 216,
        "fields": {
            "name": "Cuanza",
            "country_id": 7,
            "country_code": "AO",
            "country_name": "Angola",
            "state_code": "CUS",
            "type": "province",
            "latitude": "-10.59519100",
            "longitude": "15.40680790"
        }
    },
    {
        "model": "master.state",
        "pk": 217,
        "fields": {
            "name": "Cuanza Norte",
            "country_id": 7,
            "country_code": "AO",
            "country_name": "Angola",
            "state_code": "CNO",
            "type": "province",
            "latitude": "-9.23985130",
            "longitude": "14.65878210"
        }
    },
    {
        "model": "master.state",
        "pk": 215,
        "fields": {
            "name": "Cunene",
            "country_id": 7,
            "country_code": "AO",
            "country_name": "Angola",
            "state_code": "CNN",
            "type": "province",
            "latitude": "-16.28022210",
            "longitude": "16.15809370"
        }
    },
    {
        "model": "master.state",
        "pk": 213,
        "fields": {
            "name": "Huambo",
            "country_id": 7,
            "country_code": "AO",
            "country_name": "Angola",
            "state_code": "HUA",
            "type": "province",
            "latitude": "-12.52682210",
            "longitude": "15.59433880"
        }
    },
    {
        "model": "master.state",
        "pk": 225,
        "fields": {
            "name": "Hu\u00edla",
            "country_id": 7,
            "country_code": "AO",
            "country_name": "Angola",
            "state_code": "HUI",
            "type": "province",
            "latitude": "-14.92805530",
            "longitude": "14.65878210"
        }
    },
    {
        "model": "master.state",
        "pk": 222,
        "fields": {
            "name": "Luanda",
            "country_id": 7,
            "country_code": "AO",
            "country_name": "Angola",
            "state_code": "LUA",
            "type": "province",
            "latitude": "-9.03508800",
            "longitude": "13.26634790"
        }
    },
    {
        "model": "master.state",
        "pk": 223,
        "fields": {
            "name": "Lunda Norte",
            "country_id": 7,
            "country_code": "AO",
            "country_name": "Angola",
            "state_code": "LNO",
            "type": "province",
            "latitude": "-8.35250220",
            "longitude": "19.18800470"
        }
    },
    {
        "model": "master.state",
        "pk": 220,
        "fields": {
            "name": "Lunda Sul",
            "country_id": 7,
            "country_code": "AO",
            "country_name": "Angola",
            "state_code": "LSU",
            "type": "province",
            "latitude": "-10.28665780",
            "longitude": "20.71224650"
        }
    },
    {
        "model": "master.state",
        "pk": 227,
        "fields": {
            "name": "Malanje",
            "country_id": 7,
            "country_code": "AO",
            "country_name": "Angola",
            "state_code": "MAL",
            "type": "province",
            "latitude": "-9.82511830",
            "longitude": "16.91225100"
        }
    },
    {
        "model": "master.state",
        "pk": 219,
        "fields": {
            "name": "Moxico",
            "country_id": 7,
            "country_code": "AO",
            "country_name": "Angola",
            "state_code": "MOX",
            "type": "province",
            "latitude": "-13.42935790",
            "longitude": "20.33088140"
        }
    },
    {
        "model": "master.state",
        "pk": 224,
        "fields": {
            "name": "U\u00edge",
            "country_id": 7,
            "country_code": "AO",
            "country_name": "Angola",
            "state_code": "UIG",
            "type": "province",
            "latitude": "-7.17367320",
            "longitude": "15.40680790"
        }
    },
    {
        "model": "master.state",
        "pk": 214,
        "fields": {
            "name": "Zaire",
            "country_id": 7,
            "country_code": "AO",
            "country_name": "Angola",
            "state_code": "ZAI",
            "type": "province",
            "latitude": "-6.57334580",
            "longitude": "13.17403480"
        }
    },
    {
        "model": "master.state",
        "pk": 5273,
        "fields": {
            "name": "Blowing Point",
            "country_id": 8,
            "country_code": "AI",
            "country_name": "Anguilla",
            "state_code": null,
            "type": "district",
            "latitude": "18.17655530",
            "longitude": "-63.10212960"
        }
    },
    {
        "model": "master.state",
        "pk": 5274,
        "fields": {
            "name": "East End",
            "country_id": 8,
            "country_code": "AI",
            "country_name": "Anguilla",
            "state_code": null,
            "type": "district",
            "latitude": "18.23561730",
            "longitude": "-63.01497150"
        }
    },
    {
        "model": "master.state",
        "pk": 5275,
        "fields": {
            "name": "George Hill",
            "country_id": 8,
            "country_code": "AI",
            "country_name": "Anguilla",
            "state_code": null,
            "type": "district",
            "latitude": "18.19978110",
            "longitude": "-63.07761140"
        }
    },
    {
        "model": "master.state",
        "pk": 5276,
        "fields": {
            "name": "Island Harbour",
            "country_id": 8,
            "country_code": "AI",
            "country_name": "Anguilla",
            "state_code": null,
            "type": "district",
            "latitude": "18.25521250",
            "longitude": "-63.01405900"
        }
    },
    {
        "model": "master.state",
        "pk": 5277,
        "fields": {
            "name": "North Hill",
            "country_id": 8,
            "country_code": "AI",
            "country_name": "Anguilla",
            "state_code": null,
            "type": "district",
            "latitude": "18.20508630",
            "longitude": "-63.08584570"
        }
    },
    {
        "model": "master.state",
        "pk": 5278,
        "fields": {
            "name": "North Side",
            "country_id": 8,
            "country_code": "AI",
            "country_name": "Anguilla",
            "state_code": null,
            "type": "district",
            "latitude": "18.23005440",
            "longitude": "-63.05188900"
        }
    },
    {
        "model": "master.state",
        "pk": 5279,
        "fields": {
            "name": "Sandy Ground",
            "country_id": 8,
            "country_code": "AI",
            "country_name": "Anguilla",
            "state_code": null,
            "type": "district",
            "latitude": "18.20185510",
            "longitude": "-63.09734710"
        }
    },
    {
        "model": "master.state",
        "pk": 5280,
        "fields": {
            "name": "Sandy Hill",
            "country_id": 8,
            "country_code": "AI",
            "country_name": "Anguilla",
            "state_code": null,
            "type": "district",
            "latitude": "18.21892100",
            "longitude": "-63.01299160"
        }
    },
    {
        "model": "master.state",
        "pk": 5281,
        "fields": {
            "name": "South Hill",
            "country_id": 8,
            "country_code": "AI",
            "country_name": "Anguilla",
            "state_code": null,
            "type": "district",
            "latitude": "18.18924750",
            "longitude": "-63.09763670"
        }
    },
    {
        "model": "master.state",
        "pk": 5282,
        "fields": {
            "name": "Stoney Ground",
            "country_id": 8,
            "country_code": "AI",
            "country_name": "Anguilla",
            "state_code": null,
            "type": "district",
            "latitude": "18.21791010",
            "longitude": "-63.04969860"
        }
    },
    {
        "model": "master.state",
        "pk": 5283,
        "fields": {
            "name": "The Farrington",
            "country_id": 8,
            "country_code": "AI",
            "country_name": "Anguilla",
            "state_code": null,
            "type": "district",
            "latitude": "18.21347010",
            "longitude": "-63.02721620"
        }
    },
    {
        "model": "master.state",
        "pk": 5284,
        "fields": {
            "name": "The Quarter",
            "country_id": 8,
            "country_code": "AI",
            "country_name": "Anguilla",
            "state_code": null,
            "type": "district",
            "latitude": "18.21453340",
            "longitude": "-63.05644890"
        }
    },
    {
        "model": "master.state",
        "pk": 5285,
        "fields": {
            "name": "The Valley",
            "country_id": 8,
            "country_code": "AI",
            "country_name": "Anguilla",
            "state_code": null,
            "type": "district",
            "latitude": "18.21521660",
            "longitude": "-63.07006280"
        }
    },
    {
        "model": "master.state",
        "pk": 5286,
        "fields": {
            "name": "West End",
            "country_id": 8,
            "country_code": "AI",
            "country_name": "Anguilla",
            "state_code": null,
            "type": "district",
            "latitude": "18.17153940",
            "longitude": "-63.17191270"
        }
    },
    {
        "model": "master.state",
        "pk": 3708,
        "fields": {
            "name": "Barbuda",
            "country_id": 10,
            "country_code": "AG",
            "country_name": "Antigua and Barbuda",
            "state_code": "10",
            "type": "dependency",
            "latitude": "17.62662420",
            "longitude": "-61.77130280"
        }
    },
    {
        "model": "master.state",
        "pk": 3703,
        "fields": {
            "name": "Redonda",
            "country_id": 10,
            "country_code": "AG",
            "country_name": "Antigua and Barbuda",
            "state_code": "11",
            "type": "dependency",
            "latitude": "16.93841600",
            "longitude": "-62.34551480"
        }
    },
    {
        "model": "master.state",
        "pk": 3709,
        "fields": {
            "name": "Saint George",
            "country_id": 10,
            "country_code": "AG",
            "country_name": "Antigua and Barbuda",
            "state_code": "03",
            "type": "parish",
            "latitude": "17.12619290",
            "longitude": "-61.81921830"
        }
    },
    {
        "model": "master.state",
        "pk": 3706,
        "fields": {
            "name": "Saint John",
            "country_id": 10,
            "country_code": "AG",
            "country_name": "Antigua and Barbuda",
            "state_code": "04",
            "type": "parish",
            "latitude": "17.11363380",
            "longitude": "-61.92827140"
        }
    },
    {
        "model": "master.state",
        "pk": 3707,
        "fields": {
            "name": "Saint Mary",
            "country_id": 10,
            "country_code": "AG",
            "country_name": "Antigua and Barbuda",
            "state_code": "05",
            "type": "parish",
            "latitude": "17.05443730",
            "longitude": "-61.89690370"
        }
    },
    {
        "model": "master.state",
        "pk": 3705,
        "fields": {
            "name": "Saint Paul",
            "country_id": 10,
            "country_code": "AG",
            "country_name": "Antigua and Barbuda",
            "state_code": "06",
            "type": "parish",
            "latitude": "17.03193840",
            "longitude": "-61.81266040"
        }
    },
    {
        "model": "master.state",
        "pk": 3704,
        "fields": {
            "name": "Saint Peter",
            "country_id": 10,
            "country_code": "AG",
            "country_name": "Antigua and Barbuda",
            "state_code": "07",
            "type": "parish",
            "latitude": "17.10548380",
            "longitude": "-61.79123170"
        }
    },
    {
        "model": "master.state",
        "pk": 3710,
        "fields": {
            "name": "Saint Philip",
            "country_id": 10,
            "country_code": "AG",
            "country_name": "Antigua and Barbuda",
            "state_code": "08",
            "type": "parish",
            "latitude": "17.06749130",
            "longitude": "-61.74190260"
        }
    },
    {
        "model": "master.state",
        "pk": 4880,
        "fields": {
            "name": "Autonomous City of Buenos Aires",
            "country_id": 11,
            "country_code": "AR",
            "country_name": "Argentina",
            "state_code": "C",
            "type": "city",
            "latitude": "-34.60368440",
            "longitude": "-58.38155910"
        }
    },
    {
        "model": "master.state",
        "pk": 3656,
        "fields": {
            "name": "Buenos Aires",
            "country_id": 11,
            "country_code": "AR",
            "country_name": "Argentina",
            "state_code": "B",
            "type": "province",
            "latitude": "-37.20172850",
            "longitude": "-59.84106970"
        }
    },
    {
        "model": "master.state",
        "pk": 3647,
        "fields": {
            "name": "Catamarca",
            "country_id": 11,
            "country_code": "AR",
            "country_name": "Argentina",
            "state_code": "K",
            "type": "province",
            "latitude": "-28.47158770",
            "longitude": "-65.78772090"
        }
    },
    {
        "model": "master.state",
        "pk": 3640,
        "fields": {
            "name": "Chaco",
            "country_id": 11,
            "country_code": "AR",
            "country_name": "Argentina",
            "state_code": "H",
            "type": "province",
            "latitude": "-27.42571750",
            "longitude": "-59.02437840"
        }
    },
    {
        "model": "master.state",
        "pk": 3651,
        "fields": {
            "name": "Chubut",
            "country_id": 11,
            "country_code": "AR",
            "country_name": "Argentina",
            "state_code": "U",
            "type": "province",
            "latitude": "-43.29342460",
            "longitude": "-65.11148180"
        }
    },
    {
        "model": "master.state",
        "pk": 3642,
        "fields": {
            "name": "C\u00f3rdoba",
            "country_id": 11,
            "country_code": "AR",
            "country_name": "Argentina",
            "state_code": "X",
            "type": "province",
            "latitude": "-31.39928760",
            "longitude": "-64.26438420"
        }
    },
    {
        "model": "master.state",
        "pk": 3638,
        "fields": {
            "name": "Corrientes",
            "country_id": 11,
            "country_code": "AR",
            "country_name": "Argentina",
            "state_code": "W",
            "type": "province",
            "latitude": "-27.46921310",
            "longitude": "-58.83063490"
        }
    },
    {
        "model": "master.state",
        "pk": 3654,
        "fields": {
            "name": "Entre R\u00edos",
            "country_id": 11,
            "country_code": "AR",
            "country_name": "Argentina",
            "state_code": "E",
            "type": "province",
            "latitude": "-31.77466540",
            "longitude": "-60.49564610"
        }
    },
    {
        "model": "master.state",
        "pk": 3652,
        "fields": {
            "name": "Formosa",
            "country_id": 11,
            "country_code": "AR",
            "country_name": "Argentina",
            "state_code": "P",
            "type": "province",
            "latitude": "-26.18948040",
            "longitude": "-58.22428060"
        }
    },
    {
        "model": "master.state",
        "pk": 3645,
        "fields": {
            "name": "Jujuy",
            "country_id": 11,
            "country_code": "AR",
            "country_name": "Argentina",
            "state_code": "Y",
            "type": "province",
            "latitude": "-24.18433970",
            "longitude": "-65.30217700"
        }
    },
    {
        "model": "master.state",
        "pk": 3655,
        "fields": {
            "name": "La Pampa",
            "country_id": 11,
            "country_code": "AR",
            "country_name": "Argentina",
            "state_code": "L",
            "type": "province",
            "latitude": "-36.61475730",
            "longitude": "-64.28392090"
        }
    },
    {
        "model": "master.state",
        "pk": 3653,
        "fields": {
            "name": "La Rioja",
            "country_id": 11,
            "country_code": "AR",
            "country_name": "Argentina",
            "state_code": "F",
            "type": "province",
            "latitude": "-29.41937930",
            "longitude": "-66.85599320"
        }
    },
    {
        "model": "master.state",
        "pk": 3646,
        "fields": {
            "name": "Mendoza",
            "country_id": 11,
            "country_code": "AR",
            "country_name": "Argentina",
            "state_code": "M",
            "type": "province",
            "latitude": "-32.88945870",
            "longitude": "-68.84583860"
        }
    },
    {
        "model": "master.state",
        "pk": 3644,
        "fields": {
            "name": "Misiones",
            "country_id": 11,
            "country_code": "AR",
            "country_name": "Argentina",
            "state_code": "N",
            "type": "province",
            "latitude": "-27.42692550",
            "longitude": "-55.94670760"
        }
    },
    {
        "model": "master.state",
        "pk": 3648,
        "fields": {
            "name": "Neuqu\u00e9n",
            "country_id": 11,
            "country_code": "AR",
            "country_name": "Argentina",
            "state_code": "Q",
            "type": "province",
            "latitude": "-38.94587000",
            "longitude": "-68.07309250"
        }
    },
    {
        "model": "master.state",
        "pk": 3639,
        "fields": {
            "name": "R\u00edo Negro",
            "country_id": 11,
            "country_code": "AR",
            "country_name": "Argentina",
            "state_code": "R",
            "type": "province",
            "latitude": "-40.82614340",
            "longitude": "-63.02663390"
        }
    },
    {
        "model": "master.state",
        "pk": 3643,
        "fields": {
            "name": "Salta",
            "country_id": 11,
            "country_code": "AR",
            "country_name": "Argentina",
            "state_code": "A",
            "type": "province",
            "latitude": "-24.79976880",
            "longitude": "-65.41503670"
        }
    },
    {
        "model": "master.state",
        "pk": 3634,
        "fields": {
            "name": "San Juan",
            "country_id": 11,
            "country_code": "AR",
            "country_name": "Argentina",
            "state_code": "J",
            "type": "province",
            "latitude": "-31.53169760",
            "longitude": "-68.56769620"
        }
    },
    {
        "model": "master.state",
        "pk": 3636,
        "fields": {
            "name": "San Luis",
            "country_id": 11,
            "country_code": "AR",
            "country_name": "Argentina",
            "state_code": "D",
            "type": "province",
            "latitude": "-33.29620420",
            "longitude": "-66.32949480"
        }
    },
    {
        "model": "master.state",
        "pk": 3649,
        "fields": {
            "name": "Santa Cruz",
            "country_id": 11,
            "country_code": "AR",
            "country_name": "Argentina",
            "state_code": "Z",
            "type": "province",
            "latitude": "-51.63528210",
            "longitude": "-69.24743530"
        }
    },
    {
        "model": "master.state",
        "pk": 3641,
        "fields": {
            "name": "Santa Fe",
            "country_id": 11,
            "country_code": "AR",
            "country_name": "Argentina",
            "state_code": "S",
            "type": "province",
            "latitude": "-31.58551090",
            "longitude": "-60.72380160"
        }
    },
    {
        "model": "master.state",
        "pk": 3635,
        "fields": {
            "name": "Santiago del Estero",
            "country_id": 11,
            "country_code": "AR",
            "country_name": "Argentina",
            "state_code": "G",
            "type": "province",
            "latitude": "-27.78335740",
            "longitude": "-64.26416700"
        }
    },
    {
        "model": "master.state",
        "pk": 3650,
        "fields": {
            "name": "Tierra del Fuego",
            "country_id": 11,
            "country_code": "AR",
            "country_name": "Argentina",
            "state_code": "V",
            "type": "province",
            "latitude": "-54.80539980",
            "longitude": "-68.32420610"
        }
    },
    {
        "model": "master.state",
        "pk": 3637,
        "fields": {
            "name": "Tucum\u00e1n",
            "country_id": 11,
            "country_code": "AR",
            "country_name": "Argentina",
            "state_code": "T",
            "type": "province",
            "latitude": "-26.82211270",
            "longitude": "-65.21929030"
        }
    },
    {
        "model": "master.state",
        "pk": 2023,
        "fields": {
            "name": "Aragatsotn",
            "country_id": 12,
            "country_code": "AM",
            "country_name": "Armenia",
            "state_code": "AG",
            "type": "region",
            "latitude": "40.33473010",
            "longitude": "44.37482960"
        }
    },
    {
        "model": "master.state",
        "pk": 2024,
        "fields": {
            "name": "Ararat",
            "country_id": 12,
            "country_code": "AM",
            "country_name": "Armenia",
            "state_code": "AR",
            "type": "region",
            "latitude": "39.91394150",
            "longitude": "44.72000040"
        }
    },
    {
        "model": "master.state",
        "pk": 2026,
        "fields": {
            "name": "Armavir",
            "country_id": 12,
            "country_code": "AM",
            "country_name": "Armenia",
            "state_code": "AV",
            "type": "region",
            "latitude": "40.15546310",
            "longitude": "44.03724460"
        }
    },
    {
        "model": "master.state",
        "pk": 2028,
        "fields": {
            "name": "Gegharkunik",
            "country_id": 12,
            "country_code": "AM",
            "country_name": "Armenia",
            "state_code": "GR",
            "type": "region",
            "latitude": "40.35264260",
            "longitude": "45.12604140"
        }
    },
    {
        "model": "master.state",
        "pk": 2033,
        "fields": {
            "name": "Kotayk",
            "country_id": 12,
            "country_code": "AM",
            "country_name": "Armenia",
            "state_code": "KT",
            "type": "region",
            "latitude": "40.54102140",
            "longitude": "44.76901480"
        }
    },
    {
        "model": "master.state",
        "pk": 2029,
        "fields": {
            "name": "Lori",
            "country_id": 12,
            "country_code": "AM",
            "country_name": "Armenia",
            "state_code": "LO",
            "type": "region",
            "latitude": "40.96984520",
            "longitude": "44.49001380"
        }
    },
    {
        "model": "master.state",
        "pk": 2031,
        "fields": {
            "name": "Shirak",
            "country_id": 12,
            "country_code": "AM",
            "country_name": "Armenia",
            "state_code": "SH",
            "type": "region",
            "latitude": "40.96308140",
            "longitude": "43.81024610"
        }
    },
    {
        "model": "master.state",
        "pk": 2027,
        "fields": {
            "name": "Syunik",
            "country_id": 12,
            "country_code": "AM",
            "country_name": "Armenia",
            "state_code": "SU",
            "type": "region",
            "latitude": "39.51331120",
            "longitude": "46.33932340"
        }
    },
    {
        "model": "master.state",
        "pk": 2032,
        "fields": {
            "name": "Tavush",
            "country_id": 12,
            "country_code": "AM",
            "country_name": "Armenia",
            "state_code": "TV",
            "type": "region",
            "latitude": "40.88662960",
            "longitude": "45.33934900"
        }
    },
    {
        "model": "master.state",
        "pk": 2025,
        "fields": {
            "name": "Vayots Dzor",
            "country_id": 12,
            "country_code": "AM",
            "country_name": "Armenia",
            "state_code": "VD",
            "type": "region",
            "latitude": "39.76419960",
            "longitude": "45.33375280"
        }
    },
    {
        "model": "master.state",
        "pk": 2030,
        "fields": {
            "name": "Yerevan",
            "country_id": 12,
            "country_code": "AM",
            "country_name": "Armenia",
            "state_code": "ER",
            "type": "city",
            "latitude": "40.18720230",
            "longitude": "44.51520900"
        }
    },
    {
        "model": "master.state",
        "pk": 5243,
        "fields": {
            "name": "Noord",
            "country_id": 13,
            "country_code": "AW",
            "country_name": "Aruba",
            "state_code": null,
            "type": "region",
            "latitude": "12.58243290",
            "longitude": "-70.06761180"
        }
    },
    {
        "model": "master.state",
        "pk": 5341,
        "fields": {
            "name": "Oranjestad",
            "country_id": 13,
            "country_code": "AW",
            "country_name": "Aruba",
            "state_code": null,
            "type": "capital city",
            "latitude": "12.50837050",
            "longitude": "-70.05452530"
        }
    },
    {
        "model": "master.state",
        "pk": 5245,
        "fields": {
            "name": "Oranjestad East",
            "country_id": 13,
            "country_code": "AW",
            "country_name": "Aruba",
            "state_code": null,
            "type": "region",
            "latitude": "12.51331810",
            "longitude": "-70.05048180"
        }
    },
    {
        "model": "master.state",
        "pk": 5244,
        "fields": {
            "name": "Oranjestad West",
            "country_id": 13,
            "country_code": "AW",
            "country_name": "Aruba",
            "state_code": null,
            "type": "region",
            "latitude": "12.53522930",
            "longitude": "-70.06284040"
        }
    },
    {
        "model": "master.state",
        "pk": 5246,
        "fields": {
            "name": "Paradera",
            "country_id": 13,
            "country_code": "AW",
            "country_name": "Aruba",
            "state_code": null,
            "type": "region",
            "latitude": "12.53628710",
            "longitude": "-70.01485110"
        }
    },
    {
        "model": "master.state",
        "pk": 5247,
        "fields": {
            "name": "San Nicolaas Noord",
            "country_id": 13,
            "country_code": "AW",
            "country_name": "Aruba",
            "state_code": null,
            "type": "region",
            "latitude": "12.46427170",
            "longitude": "-69.94349390"
        }
    },
    {
        "model": "master.state",
        "pk": 5248,
        "fields": {
            "name": "San Nicolaas Zuid",
            "country_id": 13,
            "country_code": "AW",
            "country_name": "Aruba",
            "state_code": null,
            "type": "region",
            "latitude": "12.42785580",
            "longitude": "-69.93810790"
        }
    },
    {
        "model": "master.state",
        "pk": 5249,
        "fields": {
            "name": "Santa Cruz",
            "country_id": 13,
            "country_code": "AW",
            "country_name": "Aruba",
            "state_code": null,
            "type": "region",
            "latitude": "12.51128360",
            "longitude": "-69.98769660"
        }
    },
    {
        "model": "master.state",
        "pk": 5250,
        "fields": {
            "name": "Savaneta",
            "country_id": 13,
            "country_code": "AW",
            "country_name": "Aruba",
            "state_code": null,
            "type": "region",
            "latitude": "12.46184190",
            "longitude": "-69.98558580"
        }
    },
    {
        "model": "master.state",
        "pk": 3907,
        "fields": {
            "name": "Australian Capital Territory",
            "country_id": 14,
            "country_code": "AU",
            "country_name": "Australia",
            "state_code": "ACT",
            "type": "territory",
            "latitude": "-35.47346790",
            "longitude": "149.01236790"
        }
    },
    {
        "model": "master.state",
        "pk": 3909,
        "fields": {
            "name": "New South Wales",
            "country_id": 14,
            "country_code": "AU",
            "country_name": "Australia",
            "state_code": "NSW",
            "type": "state",
            "latitude": "-31.25321830",
            "longitude": "146.92109900"
        }
    },
    {
        "model": "master.state",
        "pk": 3910,
        "fields": {
            "name": "Northern Territory",
            "country_id": 14,
            "country_code": "AU",
            "country_name": "Australia",
            "state_code": "NT",
            "type": "territory",
            "latitude": "-19.49141080",
            "longitude": "132.55096030"
        }
    },
    {
        "model": "master.state",
        "pk": 3905,
        "fields": {
            "name": "Queensland",
            "country_id": 14,
            "country_code": "AU",
            "country_name": "Australia",
            "state_code": "QLD",
            "type": "state",
            "latitude": "-20.91757380",
            "longitude": "142.70279560"
        }
    },
    {
        "model": "master.state",
        "pk": 3904,
        "fields": {
            "name": "South Australia",
            "country_id": 14,
            "country_code": "AU",
            "country_name": "Australia",
            "state_code": "SA",
            "type": "state",
            "latitude": "-30.00023150",
            "longitude": "136.20915470"
        }
    },
    {
        "model": "master.state",
        "pk": 3908,
        "fields": {
            "name": "Tasmania",
            "country_id": 14,
            "country_code": "AU",
            "country_name": "Australia",
            "state_code": "TAS",
            "type": "state",
            "latitude": "-41.45451960",
            "longitude": "145.97066470"
        }
    },
    {
        "model": "master.state",
        "pk": 3903,
        "fields": {
            "name": "Victoria",
            "country_id": 14,
            "country_code": "AU",
            "country_name": "Australia",
            "state_code": "VIC",
            "type": "state",
            "latitude": "-36.48564230",
            "longitude": "140.97794250"
        }
    },
    {
        "model": "master.state",
        "pk": 3906,
        "fields": {
            "name": "Western Australia",
            "country_id": 14,
            "country_code": "AU",
            "country_name": "Australia",
            "state_code": "WA",
            "type": "state",
            "latitude": "-27.67281680",
            "longitude": "121.62830980"
        }
    },
    {
        "model": "master.state",
        "pk": 2062,
        "fields": {
            "name": "Burgenland",
            "country_id": 15,
            "country_code": "AT",
            "country_name": "Austria",
            "state_code": "1",
            "type": "state",
            "latitude": "47.15371650",
            "longitude": "16.26887970"
        }
    },
    {
        "model": "master.state",
        "pk": 2057,
        "fields": {
            "name": "Carinthia",
            "country_id": 15,
            "country_code": "AT",
            "country_name": "Austria",
            "state_code": "2",
            "type": "state",
            "latitude": "46.72220300",
            "longitude": "14.18058820"
        }
    },
    {
        "model": "master.state",
        "pk": 2065,
        "fields": {
            "name": "Lower Austria",
            "country_id": 15,
            "country_code": "AT",
            "country_name": "Austria",
            "state_code": "3",
            "type": "state",
            "latitude": "48.10807700",
            "longitude": "15.80495580"
        }
    },
    {
        "model": "master.state",
        "pk": 2061,
        "fields": {
            "name": "Salzburg",
            "country_id": 15,
            "country_code": "AT",
            "country_name": "Austria",
            "state_code": "5",
            "type": "state",
            "latitude": "47.80949000",
            "longitude": "13.05501000"
        }
    },
    {
        "model": "master.state",
        "pk": 2059,
        "fields": {
            "name": "Styria",
            "country_id": 15,
            "country_code": "AT",
            "country_name": "Austria",
            "state_code": "6",
            "type": "state",
            "latitude": "47.35934420",
            "longitude": "14.46998270"
        }
    },
    {
        "model": "master.state",
        "pk": 2064,
        "fields": {
            "name": "Tyrol",
            "country_id": 15,
            "country_code": "AT",
            "country_name": "Austria",
            "state_code": "7",
            "type": "state",
            "latitude": "47.25374140",
            "longitude": "11.60148700"
        }
    },
    {
        "model": "master.state",
        "pk": 2058,
        "fields": {
            "name": "Upper Austria",
            "country_id": 15,
            "country_code": "AT",
            "country_name": "Austria",
            "state_code": "4",
            "type": "state",
            "latitude": "48.02585400",
            "longitude": "13.97236650"
        }
    },
    {
        "model": "master.state",
        "pk": 2060,
        "fields": {
            "name": "Vienna",
            "country_id": 15,
            "country_code": "AT",
            "country_name": "Austria",
            "state_code": "9",
            "type": "state",
            "latitude": "48.20817430",
            "longitude": "16.37381890"
        }
    },
    {
        "model": "master.state",
        "pk": 2063,
        "fields": {
            "name": "Vorarlberg",
            "country_id": 15,
            "country_code": "AT",
            "country_name": "Austria",
            "state_code": "8",
            "type": "state",
            "latitude": "47.24974270",
            "longitude": "9.97973730"
        }
    },